resource,sequence,lat,lon,location,country,id
wood,1,46.856255,-73.255688,Quebec,Canada,1
wood,2,46.8214974,-71.2537732,Quebec City,Canada,1
wood ,3,43.6800052,-70.331302,Portland,Maine,1
wood,4,47.4823015,-53.1095691,St. John,Nova Scotia,1
wood ,5,46.1621532,-1.2464739,La Rochelle,France,1
wood ,6,47.3943622,0.6247271,Tours,France,1
wood ,7,48.8589996,2.2071248,Paris,France,1
